# 
# Header Description:
# 
# Version: v3.0.5.6 Platform: 10 Manufacturer: HUAWEI Model: YAL-L21
# 
# Raw,utcTimeMillis,TimeNanos,LeapSecond,TimeUncertaintyNanos,FullBiasNanos,BiasNanos,BiasUncertaintyNanos,DriftNanosPerSecond,DriftUncertaintyNanosPerSecond,HardwareClockDiscontinuityCount,Svid,TimeOffsetNanos,State,ReceivedSvTimeNanos,ReceivedSvTimeUncertaintyNanos,Cn0DbHz,PseudorangeRateMetersPerSecond,PseudorangeRateUncertaintyMetersPerSecond,AccumulatedDeltaRangeState,AccumulatedDeltaRangeMeters,AccumulatedDeltaRangeUncertaintyMeters,CarrierFrequencyHz,CarrierCycles,CarrierPhase,CarrierPhaseUncertainty,MultipathIndicator,SnrInDb,ConstellationType,AgcDb,BasebandCn0DbHz,FullInterSignalBiasNanos,FullInterSignalBiasUncertaintyNanos,SatelliteInterSignalBiasNanos,SatelliteInterSignalBiasUncertaintyNanos,CodeType,ChipsetElapsedRealtimeNanos
# 
# UncalAccel,utcTimeMillis,elapsedRealtimeNanos,UncalAccelXMps2,UncalAccelYMps2,UncalAccelZMps2,BiasXMps2,BiasYMps2,BiasZMps2
# 
# Accel,utcTimeMillis,elapsedRealtimeNanos,AccelXMps2,AccelYMps2,AccelZMps2
# 
# UncalGyro,utcTimeMillis,elapsedRealtimeNanos,UncalGyroXRadPerSec,UncalGyroYRadPerSec,UncalGyroZRadPerSec,DriftXRadPerSec,DriftYRadPerSec,DriftZRadPerSec
# 
# Gyro,utcTimeMillis,elapsedRealtimeNanos,GyroXRadPerSec,GyroYRadPerSec,GyroZRadPerSec
# 
# UncalMag,utcTimeMillis,elapsedRealtimeNanos,UncalMagXMicroT,UncalMagYMicroT,UncalMagZMicroT,BiasXMicroT,BiasYMicroT,BiasZMicroT
# 
# Mag,utcTimeMillis,elapsedRealtimeNanos,MagXMicroT,MagYMicroT,MagZMicroT
# 
# OrientationDeg,utcTimeMillis,elapsedRealtimeNanos,yawDeg,rollDeg,pitchDeg
# 
# Fix,Provider,LatitudeDegrees,LongitudeDegrees,AltitudeMeters,SpeedMps,AccuracyMeters,BearingDegrees,UnixTimeMillis,SpeedAccuracyMps,BearingAccuracyDegrees,elapsedRealtimeNanos,VerticalAccuracyMeters
# 
# Nav,Svid,Type,Status,MessageId,Sub-messageId,Data(Bytes)
# 
# Status,UnixTimeMillis,SignalCount,SignalIndex,ConstellationType,Svid,CarrierFrequencyHz,Cn0DbHz,AzimuthDegrees,ElevationDegrees,UsedInFix,HasAlmanacData,HasEphemerisData,BasebandCn0DbHz
# 
Fix,GPS,37.7951514778,-122.4003642058,-28.414413096383214,1.0315319,4.7,169.16542,1677089017981,0.15,5.0,8482669874765,4.7
Status,1677089017981,42,0,1,9,1575420030,18.00,154.87543,38.666553,1,1,1,
Status,1677089017981,42,1,1,14,1575420030,25.00,239.74985,55.835476,1,1,1,
Status,1677089017981,42,2,1,30,1575420030,35.00,325.40387,62.87391,1,1,1,
Status,1677089017981,42,3,1,8,1575420030,14.00,58.90255,32.436985,1,1,1,
Status,1677089017981,42,4,1,9,1176450050,27.00,154.87543,38.666553,1,0,1,
Status,1677089017981,42,5,1,8,1176450050,9.00,58.902554,32.436974,1,0,1,
Status,1677089017981,42,6,1,7,1575420030,27.00,59.034847,59.94011,1,1,1,
Status,1677089017981,42,7,6,3,1575420030,34.00,166.26326,54.83169,1,1,1,
Status,1677089017981,42,8,1,13,1575420030,9.00,316.3168,15.825377,1,1,1,
Status,1677089017981,42,9,6,25,1176450050,23.00,45.260723,43.64699,1,1,1,
Status,1677089017981,42,10,3,10,1597781250,31.00,331.36176,59.03114,1,1,1,
Status,1677089017981,42,11,6,2,1575420030,25.00,283.11627,77.926544,1,1,1,
Status,1677089017981,42,12,3,9,1600593790,35.00,41.09339,36.410896,1,1,1,
Status,1677089017981,42,13,6,3,1176450050,26.00,166.26326,54.83169,1,1,1,
Status,1677089017981,42,14,3,1,1602281220,21.00,328.1847,20.48022,1,1,1,
Status,1677089017981,42,15,1,30,1176450050,27.00,325.40387,62.87391,1,0,1,
Status,1677089017981,42,16,3,7,1604531200,19.00,191.35486,41.114143,1,1,1,
Status,1677089017981,42,17,6,8,1176450050,23.00,293.5519,63.40658,1,1,1,
Status,1677089017981,42,18,3,8,1605093760,30.00,277.5234,60.96778,1,1,1,
Status,1677089017981,42,19,3,18,1600031230,16.00,23.095757,7.032186,1,1,1,
Status,1677089017981,42,20,5,14,1561097980,17.00,266.64627,46.952244,1,1,1,
Status,1677089017981,42,21,5,24,1561097980,26.00,285.69568,49.057564,1,1,1,
Status,1677089017981,42,22,5,29,1561097980,18.00,52.006783,15.25004,1,1,1,
Status,1677089017981,42,23,1,5,1575420030,20.00,294.12418,17.777452,1,1,1,
Status,1677089017981,42,24,1,20,1575420030,13.00,263.44855,16.70895,1,1,1,
Status,1677089017981,42,25,6,30,1575420030,13.00,240.14049,26.655369,1,1,1,
Status,1677089017981,42,26,5,26,1561097980,27.00,27.317749,64.79288,1,1,1,
Status,1677089017981,42,27,6,25,1575420030,25.00,45.260723,43.64699,1,1,1,
Status,1677089017981,42,28,6,2,1176450050,34.00,283.11627,77.926544,1,1,1,
Status,1677089017981,42,29,5,33,1561097980,27.00,299.48557,33.74847,1,0,1,
Status,1677089017981,42,30,5,42,1561097980,13.00,227.08647,45.851963,1,0,1,
Status,1677089017981,42,31,3,11,1601718780,24.00,267.4234,23.73305,1,1,1,
Status,1677089017981,42,32,6,8,1575420030,32.00,293.5519,63.40658,1,1,1,
Status,1677089017981,42,33,5,8,1561097980,0.00,322.12897,7.6641293,0,1,1,
Status,1677089017981,42,34,3,19,1603406210,0.00,64.54763,18.28855,0,1,1,
Status,1677089017981,42,35,1,27,1575420030,0.00,35.920612,8.325198,0,1,1,
Status,1677089017981,42,36,6,7,1575420030,0.00,318.6028,13.732605,0,1,1,
Status,1677089017981,42,37,3,20,1602843780,0.00,123.320274,8.52337,0,1,1,
Status,1677089017981,42,38,1,4,1575420030,0.00,144.46915,6.858172,0,1,1,
Status,1677089017981,42,39,6,5,1575420030,0.00,147.95862,5.905372,0,1,1,
Status,1677089017981,42,40,1,17,1575420030,0.00,180.46959,10.517591,0,1,1,
Status,1677089017981,42,41,5,21,1561097980,0.00,178.96997,14.735342,0,1,1,
Raw,1677089018000,1486887610075,18,0.0,-1361122749112462373,0.0,333.564095198152,-82.26906323764807,0.0,7,9,0.0,16399,324235926192902,161,18.0,562.6569240252073,0.30000000715255754,16,0.0,0.1,1575420030,,,,1,,1,-4.0,,,,,,C,8482807809140
Raw,1677089018000,1486887610075,18,0.0,-1361122749112462373,0.0,333.564095198152,-82.26906323764807,0.0,7,14,0.0,16399,324235929622729,7,25.0,-363.2320108714972,0.05,16,0.0,0.1,1575420030,,,,2,,1,-4.0,,,,,,C,8482807809140
Raw,1677089018000,1486887610075,18,0.0,-1361122749112462373,0.0,333.564095198152,-82.26906323764807,0.0,7,30,0.0,16399,324235930096518,21,35.0,-235.89083539965463,0.02,16,0.0,0.1,1575420030,,,,1,,1,-4.0,,,,,,C,8482807809140
Raw,1677089018000,1486887610075,18,0.0,-1361122749112462373,0.0,333.564095198152,-82.26906323764807,0.0,7,8,0.0,16399,324235925101191,201,14.0,271.80330872966204,0.5,16,0.0,0.1,1575420030,,,,1,,1,-4.0,,,,,,C,8482807809140
Raw,1677089018000,1486887610075,18,0.0,-1361122749112462373,0.0,333.564095198152,-82.26906323764807,0.0,7,9,0.0,16399,324235926192855,6,27.0,562.6720684336774,0.029999997711181815,16,0.0,0.1,1176450050,,,,2,,1,6.0,,,,,,Q,8482807809140
Raw,1677089018000,1486887610075,18,0.0,-1361122749112462373,0.0,333.564095198152,-82.26906323764807,0.0,7,8,0.0,0,0,6,9.0,278.2328555176101,0.029999997711181815,16,0.0,0.1,1176450050,,,,0,,1,6.0,,,,,,Q,8482807809140
Raw,1677089018000,1486887610075,18,0.0,-1361122749112462373,0.0,333.564095198152,-82.26906323764807,0.0,7,7,0.0,16399,324235930134597,9,27.0,88.48795017231855,0.029999997711181815,16,0.0,0.1,1575420030,,,,1,,1,-4.0,,,,,,C,8482807809140
Raw,1677089018000,1486887610075,18,0.0,-1361122749112462373,0.0,333.564095198152,-82.26906323764807,0.0,7,3,0.0,23560,324235918801857,5,34.0,338.70755548936864,0.02,16,0.0,0.1,1575420030,,,,2,,6,-4.0,,,,,,A,8482807809140
Raw,1677089018000,1486887610075,18,0.0,-1361122749112462373,0.0,333.564095198152,-82.26906323764807,0.0,7,13,0.0,16399,324235920716002,66,9.0,-658.3497831827352,0.05,16,0.0,0.1,1575420030,,,,0,,1,-4.0,,,,,,C,8482807809140
Raw,1677089018000,1486887610075,18,0.0,-1361122749112462373,0.0,333.564095198152,-82.26906323764807,0.0,7,25,0.0,23560,324235916612817,66,23.0,346.41168351116147,0.05,16,0.0,0.1,1176450050,,,,2,,6,6.0,,,,,,Q,8482807809140
Raw,1677089018000,1486887610075,18,0.0,-1361122749112462373,0.0,333.564095198152,-82.26906323764807,0.0,7,10,0.0,32995,75817933915731,21,31.0,14.09855263908839,0.02,16,0.0,0.1,1597781250,,,,2,,3,-4.0,,,,,,C,8482807809140
Raw,1677089018000,1486887610075,18,0.0,-1361122749112462373,0.0,333.564095198152,-82.26906323764807,0.0,7,2,0.0,23560,324235922284309,7,25.0,-57.979078399907685,0.05,16,0.0,0.1,1575420030,,,,2,,6,-4.0,,,,,,A,8482807809140
Raw,1677089018000,1486887610075,18,0.0,-1361122749112462373,0.0,333.564095198152,-82.26906323764807,0.0,7,9,0.0,32995,75817929447588,25,35.0,420.72372465968226,0.02,16,0.0,0.1,1600593790,,,,1,,3,-4.0,,,,,,C,8482807809140
Raw,1677089018000,1486887610075,18,0.0,-1361122749112462373,0.0,333.564095198152,-82.26906323764807,0.0,7,3,0.0,23560,324235918801835,7,26.0,338.7826260786767,0.05,16,0.0,0.1,1176450050,,,,2,,6,6.0,,,,,,Q,8482807809140
Raw,1677089018000,1486887610075,18,0.0,-1361122749112462373,0.0,333.564095198152,-82.26906323764807,0.0,7,1,0.0,32995,75817924787363,401,21.0,-668.9773953053009,0.30000000715255754,16,0.0,0.1,1602281220,,,,2,,3,-4.0,,,,,,C,8482807809140
Raw,1677089018000,1486887610075,18,0.0,-1361122749112462373,0.0,333.564095198152,-82.26906323764807,0.0,7,30,0.0,16399,324235930096528,6,27.0,-236.21192433533042,0.029999997711181815,16,0.0,0.1,1176450050,,,,2,,1,6.0,,,,,,Q,8482807809140
Raw,1677089018000,1486887610075,18,0.0,-1361122749112462373,0.0,333.564095198152,-82.26906323764807,0.0,7,7,0.0,32995,75817930618894,41,19.0,641.4202536623538,0.30000000715255754,16,0.0,0.1,1604531200,,,,2,,3,-4.0,,,,,,C,8482807809140
Raw,1677089018000,1486887610075,18,0.0,-1361122749112462373,0.0,333.564095198152,-82.26906323764807,0.0,7,8,0.0,23560,324235920744113,7,23.0,-171.41882994960775,0.05,16,0.0,0.1,1176450050,,,,2,,6,6.0,,,,,,Q,8482807809140
Raw,1677089018000,1486887610075,18,0.0,-1361122749112462373,0.0,333.564095198152,-82.26906323764807,0.0,7,8,0.0,32995,75817934038749,31,30.0,-40.34817504128426,0.029999997711181815,16,0.0,0.1,1605093760,,,,1,,3,-4.0,,,,,,C,8482807809140
Raw,1677089018000,1486887610075,18,0.0,-1361122749112462373,0.0,333.564095198152,-82.26906323764807,0.0,7,18,0.0,32995,75817920274211,126,16.0,272.1581300755597,0.5,16,0.0,0.1,1600031230,,,,0,,3,-4.0,,,,,,C,8482807809140
Raw,1677089018000,1486887610075,18,0.0,-1361122749112462373,0.0,333.564095198152,-82.26906323764807,0.0,7,14,0.0,16399,324221924044841,101,17.0,79.94025914219398,0.30000000715255754,16,0.0,0.1,1561097980,,,,0,,5,-4.0,,,,,,I,8482807809140
Raw,1677089018000,1486887610075,18,0.0,-1361122749112462373,0.0,333.564095198152,-82.26906323764807,0.0,7,24,0.0,16399,324221923780476,22,26.0,-280.56631961217334,0.05,16,0.0,0.1,1561097980,,,,2,,5,-4.0,,,,,,I,8482807809140
Raw,1677089018000,1486887610075,18,0.0,-1361122749112462373,0.0,333.564095198152,-82.26906323764807,0.0,7,29,0.0,16399,324221914965390,161,18.0,95.0949988194525,0.30000000715255754,16,0.0,0.1,1561097980,,,,0,,5,-4.0,,,,,,I,8482807809140
Raw,1677089018000,1486887610075,18,0.0,-1361122749112462373,0.0,333.564095198152,-82.26906323764807,0.0,7,5,0.0,16399,324235920380774,126,20.0,30.86392328728719,0.5,16,0.0,0.1,1575420030,,,,0,,1,-4.0,,,,,,C,8482807809140
Raw,1677089018000,1486887610075,18,0.0,-1361122749112462373,0.0,333.564095198152,-82.26906323764807,0.0,7,20,0.0,16399,324235920750783,126,13.0,306.65498197398557,0.5,16,0.0,0.1,1575420030,,,,0,,1,-4.0,,,,,,C,8482807809140
Raw,1677089018000,1486887610075,18,0.0,-1361122749112462373,0.0,333.564095198152,-82.26906323764807,0.0,7,30,0.0,23560,324235911487052,126,13.0,-437.8766540381685,0.5,16,0.0,0.1,1575420030,,,,0,,6,-4.0,,,,,,A,8482807809140
Raw,1677089018000,1486887610075,18,0.0,-1361122749112462373,0.0,333.564095198152,-82.26906323764807,0.0,7,26,0.0,16399,324221926618449,9,27.0,117.6747026239663,0.029999997711181815,16,0.0,0.1,1561097980,,,,1,,5,-4.0,,,,,,I,8482807809140
Raw,1677089018000,1486887610075,18,0.0,-1361122749112462373,0.0,333.564095198152,-82.26906323764807,0.0,7,25,0.0,23560,324235916612797,11,25.0,346.15231415218597,0.05,16,0.0,0.1,1575420030,,,,1,,6,-4.0,,,,,,A,8482807809140
Raw,1677089018000,1486887610075,18,0.0,-1361122749112462373,0.0,333.564095198152,-82.26906323764807,0.0,7,2,0.0,23560,324235922284266,5,34.0,-57.968830102527015,0.02,16,0.0,0.1,1176450050,,,,2,,6,6.0,,,,,,Q,8482807809140
Raw,1677089018000,1486887610075,18,0.0,-1361122749112462373,0.0,333.564095198152,-82.26906323764807,0.0,7,33,0.0,16399,324221919575520,5,27.0,-217.01752081263461,0.02,16,0.0,0.1,1561097980,,,,1,,5,-4.0,,,,,,I,8482807809140
Raw,1677089018000,1486887610075,18,0.0,-1361122749112462373,0.0,333.564095198152,-82.26906323764807,0.0,7,42,0.0,16399,324221922526329,101,13.0,347.76356457933787,0.5,16,0.0,0.1,1561097980,,,,0,,5,-4.0,,,,,,I,8482807809140
Raw,1677089018000,1486887610075,18,0.0,-1361122749112462373,0.0,333.564095198152,-82.26906323764807,0.0,7,11,0.0,32995,75817925755046,94,24.0,-468.9832041479969,0.05,16,0.0,0.1,1601718780,,,,2,,3,-4.0,,,,,,C,8482807809140
Raw,1677089018000,1486887610075,18,0.0,-1361122749112462373,0.0,333.564095198152,-82.26906323764807,0.0,7,8,0.0,23560,324235920744133,5,32.0,-170.41625606532736,0.02,16,0.0,0.1,1575420030,,,,2,,6,-4.0,,,,,,A,8482807809140
Raw,1677089018000,1486887610075,18,0.0,-1361122749112462373,0.0,333.564095198152,-82.26906323764807,0.0,7,8,0.0,0,0,10,0.0,0.0,0.1,16,0.0,0.1,1561097980,,,,0,,5,-4.0,,,,,,I,8482807809140
Raw,1677089018000,1486887610075,18,0.0,-1361122749112462373,0.0,333.564095198152,-82.26906323764807,0.0,7,19,0.0,0,0,111,0.0,655.543087755581,0.029999997711181815,16,0.0,0.1,1603406210,,,,0,,3,-4.0,,,,,,C,8482807809140
Raw,1677089018000,1486887610075,18,0.0,-1361122749112462373,0.0,333.564095198152,-82.26906323764807,0.0,7,27,0.0,0,0,74,0.0,665.2053712098988,0.02,16,0.0,0.1,1575420030,,,,0,,1,-4.0,,,,,,C,8482807809140
Raw,1677089018000,1486887610075,18,0.0,-1361122749112462373,0.0,333.564095198152,-82.26906323764807,0.0,7,7,0.0,0,0,201,0.0,681.3465639364767,0.5,16,0.0,0.1,1575420030,,,,0,,6,-4.0,,,,,,A,8482807809140
Raw,1677089018000,1486887610075,18,0.0,-1361122749112462373,0.0,333.564095198152,-82.26906323764807,0.0,7,20,0.0,0,0,126,0.0,666.4642163347926,0.5,16,0.0,0.1,1602843780,,,,0,,3,-4.0,,,,,,C,8482807809140
Raw,1677089018000,1486887610075,18,0.0,-1361122749112462373,0.0,333.564095198152,-82.26906323764807,0.0,7,4,0.0,0,0,22,0.0,-335.2521887543675,0.05,16,0.0,0.1,1575420030,,,,0,,1,-4.0,,,,,,C,8482807809140
Raw,1677089018000,1486887610075,18,0.0,-1361122749112462373,0.0,333.564095198152,-82.26906323764807,0.0,7,5,0.0,0,0,334,0.0,566.6461136805884,0.5,16,0.0,0.1,1575420030,,,,0,,6,-4.0,,,,,,A,8482807809140
Raw,1677089018000,1486887610075,18,0.0,-1361122749112462373,0.0,333.564095198152,-82.26906323764807,0.0,7,17,0.0,0,0,42,0.0,560.8217817410789,0.30000000715255754,16,0.0,0.1,1575420030,,,,0,,1,-4.0,,,,,,C,8482807809140
Raw,1677089018000,1486887610075,18,0.0,-1361122749112462373,0.0,333.564095198152,-82.26906323764807,0.0,7,21,0.0,0,0,81,0.0,567.5592465043522,0.30000000715255754,16,0.0,0.1,1561097980,,,,0,,5,-4.0,,,,,,I,8482807809140
Status,1677089017981,41,0,1,9,1575420030,19.00,154.87805,38.65872,1,1,1,
Status,1677089017981,41,1,1,14,1575420030,26.00,239.7586,55.842163,1,1,1,
Status,1677089017981,41,2,1,30,1575420030,35.00,325.41635,62.87867,1,1,1,
Status,1677089017981,41,3,1,8,1575420030,15.00,58.8948,32.433647,1,1,1,
Status,1677089017981,41,4,1,9,1176450050,26.00,154.87805,38.65872,1,0,1,
Status,1677089017981,41,5,1,7,1575420030,26.00,59.04794,59.93621,1,1,1,
Status,1677089017981,41,6,6,3,1575420030,33.00,166.26558,54.82483,1,1,1,
Status,1677089017981,41,7,6,25,1176450050,24.00,45.262623,43.64158,1,1,1,
Status,1677089017981,41,8,3,10,1597781250,30.00,331.37976,59.030357,1,1,1,
Status,1677089017981,41,9,6,2,1575420030,26.00,283.14688,77.92836,1,1,1,
Status,1677089017981,41,10,3,9,1600593790,35.00,41.10088,36.40495,1,1,1,
Status,1677089017981,41,11,6,3,1176450050,30.00,166.26558,54.82483,1,1,1,
Status,1677089017981,41,12,3,1,1602281220,21.00,328.18057,20.487019,1,1,1,
Status,1677089017981,41,13,1,30,1176450050,26.00,325.41635,62.87867,1,0,1,
Status,1677089017981,41,14,3,7,1604531200,19.00,191.35345,41.104538,1,1,1,
Status,1677089017981,41,15,6,8,1176450050,25.00,293.54037,63.4102,1,1,1,
Status,1677089017981,41,16,3,8,1605093760,31.00,277.50317,60.967945,1,1,1,
Status,1677089017981,41,17,3,18,1600031230,16.00,23.08859,7.0295167,1,1,1,
Status,1677089017981,41,18,5,14,1561097980,18.00,266.63577,46.95057,1,1,1,
Status,1677089017981,41,19,5,24,1561097980,26.00,285.70416,49.06181,1,1,1,
Status,1677089017981,41,20,5,29,1561097980,17.00,52.00054,15.2488575,1,1,1,
Status,1677089017981,41,21,1,5,1575420030,19.00,294.11664,17.77718,1,1,1,
Status,1677089017981,41,22,1,20,1575420030,13.00,263.44162,16.705513,1,1,1,
Status,1677089017981,41,23,6,30,1575420030,12.00,240.14572,26.659966,1,1,1,
Status,1677089017981,41,24,5,26,1561097980,25.00,27.33091,64.78915,1,1,1,
Status,1677089017981,41,25,6,25,1575420030,24.00,45.262623,43.64158,1,1,1,
Status,1677089017981,41,26,6,2,1176450050,34.00,283.14688,77.92836,1,1,1,
Status,1677089017981,41,27,5,33,1561097980,27.00,299.47812,33.750954,1,0,1,
Status,1677089017981,41,28,5,42,1561097980,13.00,227.07948,45.84609,1,0,1,
Status,1677089017981,41,29,3,11,1601718780,24.00,267.43167,23.737902,1,1,1,
Status,1677089017981,41,30,6,8,1575420030,32.00,293.54037,63.4102,1,1,1,
Status,1677089017981,41,31,5,8,1561097980,0.00,322.12646,7.662857,0,1,1,
Status,1677089017981,41,32,3,19,1603406210,0.00,64.53887,18.290926,0,1,1,
Status,1677089017981,41,33,1,27,1575420030,0.00,35.91677,8.320127,0,1,1,
Status,1677089017981,41,34,6,7,1575420030,0.00,318.60245,13.737665,0,1,1,
Status,1677089017981,41,35,3,20,1602843780,0.00,123.31475,8.530017,0,1,1,
Status,1677089017981,41,36,1,4,1575420030,0.00,144.47142,6.8516617,0,1,1,
Status,1677089017981,41,37,6,5,1575420030,0.00,147.96054,5.900112,0,1,1,
Status,1677089017981,41,38,1,13,1575420030,0.00,316.3177,15.838683,0,1,1,
Status,1677089017981,41,39,1,17,1575420030,0.00,180.46776,10.524577,0,1,1,
Status,1677089017981,41,40,5,21,1561097980,0.00,178.96892,14.728921,0,1,1,
Fix,GPS,37.7951584636,-122.4003567218,-28.253920659422874,0.56301785,4.7,169.16542,1677089019000,0.15,5.0,8483824425807,4.7
Raw,1677089019000,1487887610075,18,0.0,-1361122749112462373,0.0,333.564095198152,-81.93094713905825,0.0,7,9,0.0,16399,324236926191027,42,19.0,563.4316297301222,0.30000000715255754,16,0.0,0.1,1575420030,,,,1,,1,-4.0,,,,,,C,8483825311744
Raw,1677089019000,1487887610075,18,0.0,-1361122749112462373,0.0,333.564095198152,-81.93094713905825,0.0,7,14,0.0,16399,324236929623937,7,26.0,-363.4589747529408,0.05,16,0.0,0.1,1575420030,,,,2,,1,-4.0,,,,,,C,8483825311744
Raw,1677089019000,1487887610075,18,0.0,-1361122749112462373,0.0,333.564095198152,-81.93094713905825,0.0,7,30,0.0,16399,324236930097295,7,35.0,-235.6291235265366,0.02,16,0.0,0.1,1575420030,,,,1,,1,-4.0,,,,,,C,8483825311744
Raw,1677089019000,1487887610075,18,0.0,-1361122749112462373,0.0,333.564095198152,-81.93094713905825,0.0,7,8,0.0,16399,324236925100269,201,15.0,270.5873526021836,0.5,16,0.0,0.1,1575420030,,,,1,,1,-4.0,,,,,,C,8483825311744
Raw,1677089019000,1487887610075,18,0.0,-1361122749112462373,0.0,333.564095198152,-81.93094713905825,0.0,7,9,0.0,16399,324236926190983,7,26.0,562.3518652630554,0.05,16,0.0,0.1,1176450050,,,,2,,1,6.0,,,,,,Q,8483825311744
Raw,1677089019000,1487887610075,18,0.0,-1361122749112462373,0.0,333.564095198152,-81.93094713905825,0.0,7,7,0.0,16399,324236930134297,7,26.0,88.73637493840035,0.05,16,0.0,0.1,1575420030,,,,2,,1,-4.0,,,,,,C,8483825311744
Raw,1677089019000,1487887610075,18,0.0,-1361122749112462373,0.0,333.564095198152,-81.93094713905825,0.0,7,3,0.0,23560,324236918800728,5,33.0,338.77066344048865,0.02,16,0.0,0.1,1575420030,,,,2,,6,-4.0,,,,,,A,8483825311744
Raw,1677089019000,1487887610075,18,0.0,-1361122749112462373,0.0,333.564095198152,-81.93094713905825,0.0,7,25,0.0,23560,324236916611658,66,24.0,346.4714438304038,0.05,16,0.0,0.1,1176450050,,,,2,,6,6.0,,,,,,Q,8483825311744
Raw,1677089019000,1487887610075,18,0.0,-1361122749112462373,0.0,333.564095198152,-81.93094713905825,0.0,7,10,0.0,32995,75818933915681,21,30.0,14.442251728092124,0.029999997711181815,16,0.0,0.1,1597781250,,,,2,,3,-4.0,,,,,,C,8483825311744
Raw,1677089019000,1487887610075,18,0.0,-1361122749112462373,0.0,333.564095198152,-81.93094713905825,0.0,7,2,0.0,23560,324236922284511,11,26.0,-57.25248328862993,0.05,16,0.0,0.1,1575420030,,,,1,,6,-4.0,,,,,,A,8483825311744
Raw,1677089019000,1487887610075,18,0.0,-1361122749112462373,0.0,333.564095198152,-81.93094713905825,0.0,7,9,0.0,32995,75818929446186,25,35.0,420.8171635589838,0.02,16,0.0,0.1,1600593790,,,,1,,3,-4.0,,,,,,C,8483825311744
Raw,1677089019000,1487887610075,18,0.0,-1361122749112462373,0.0,333.564095198152,-81.93094713905825,0.0,7,3,0.0,23560,324236918800709,6,30.0,338.5547988534149,0.029999997711181815,16,0.0,0.1,1176450050,,,,2,,6,6.0,,,,,,Q,8483825311744
Raw,1677089019000,1487887610075,18,0.0,-1361122749112462373,0.0,333.564095198152,-81.93094713905825,0.0,7,1,0.0,32995,75818924789527,206,21.0,-669.0505083116069,0.30000000715255754,16,0.0,0.1,1602281220,,,,1,,3,-4.0,,,,,,C,8483825311744
Raw,1677089019000,1487887610075,18,0.0,-1361122749112462373,0.0,333.564095198152,-81.93094713905825,0.0,7,30,0.0,16399,324236930097316,7,26.0,-235.4152406181565,0.05,16,0.0,0.1,1176450050,,,,2,,1,6.0,,,,,,Q,8483825311744
Raw,1677089019000,1487887610075,18,0.0,-1361122749112462373,0.0,333.564095198152,-81.93094713905825,0.0,7,7,0.0,32995,75818930616760,62,19.0,641.7044383160049,0.30000000715255754,16,0.0,0.1,1604531200,,,,1,,3,-4.0,,,,,,C,8483825311744
Raw,1677089019000,1487887610075,18,0.0,-1361122749112462373,0.0,333.564095198152,-81.93094713905825,0.0,7,8,0.0,23560,324236920744680,7,25.0,-170.63154830491274,0.05,16,0.0,0.1,1176450050,,,,2,,6,6.0,,,,,,Q,8483825311744
Raw,1677089019000,1487887610075,18,0.0,-1361122749112462373,0.0,333.564095198152,-81.93094713905825,0.0,7,8,0.0,32995,75818934038886,21,31.0,-40.272311675849615,0.02,16,0.0,0.1,1605093760,,,,2,,3,-4.0,,,,,,C,8483825311744
Raw,1677089019000,1487887610075,18,0.0,-1361122749112462373,0.0,333.564095198152,-81.93094713905825,0.0,7,18,0.0,32995,75818920273314,31,16.0,272.23077123846787,0.029999997711181815,16,0.0,0.1,1600031230,,,,2,,3,-4.0,,,,,,C,8483825311744
Raw,1677089019000,1487887610075,18,0.0,-1361122749112462373,0.0,333.564095198152,-81.93094713905825,0.0,7,14,0.0,16399,324222924044544,101,18.0,79.48510305501132,0.30000000715255754,16,0.0,0.1,1561097980,,,,0,,5,-4.0,,,,,,I,8483825311744
Raw,1677089019000,1487887610075,18,0.0,-1361122749112462373,0.0,333.564095198152,-81.93094713905825,0.0,7,24,0.0,16399,324222923781432,34,26.0,-280.38589872576574,0.05,16,0.0,0.1,1561097980,,,,1,,5,-4.0,,,,,,I,8483825311744
Raw,1677089019000,1487887610075,18,0.0,-1361122749112462373,0.0,333.564095198152,-81.93094713905825,0.0,7,29,0.0,16399,324222914965045,161,17.0,94.9312893769906,0.30000000715255754,16,0.0,0.1,1561097980,,,,0,,5,-4.0,,,,,,I,8483825311744
Raw,1677089019000,1487887610075,18,0.0,-1361122749112462373,0.0,333.564095198152,-81.93094713905825,0.0,7,5,0.0,16399,324236920380670,161,19.0,30.801105701268515,0.30000000715255754,16,0.0,0.1,1575420030,,,,1,,1,-4.0,,,,,,C,8483825311744
Raw,1677089019000,1487887610075,18,0.0,-1361122749112462373,0.0,333.564095198152,-81.93094713905825,0.0,7,20,0.0,16399,324236920749730,126,13.0,307.29899144314703,0.5,16,0.0,0.1,1575420030,,,,0,,1,-4.0,,,,,,C,8483825311744
Raw,1677089019000,1487887610075,18,0.0,-1361122749112462373,0.0,333.564095198152,-81.93094713905825,0.0,7,30,0.0,23560,324236911488508,126,12.0,-437.55938661021577,0.5,16,0.0,0.1,1575420030,,,,0,,6,-4.0,,,,,,A,8483825311744
Raw,1677089019000,1487887610075,18,0.0,-1361122749112462373,0.0,333.564095198152,-81.93094713905825,0.0,7,26,0.0,16399,324222926618070,7,25.0,118.04400121375987,0.05,16,0.0,0.1,1561097980,,,,2,,5,-4.0,,,,,,I,8483825311744
Raw,1677089019000,1487887610075,18,0.0,-1361122749112462373,0.0,333.564095198152,-81.93094713905825,0.0,7,25,0.0,23560,324236916611634,11,24.0,345.8279966595733,0.05,16,0.0,0.1,1575420030,,,,1,,6,-4.0,,,,,,A,8483825311744
Raw,1677089019000,1487887610075,18,0.0,-1361122749112462373,0.0,333.564095198152,-81.93094713905825,0.0,7,2,0.0,23560,324236922284459,5,34.0,-57.76527017848145,0.02,16,0.0,0.1,1176450050,,,,2,,6,6.0,,,,,,Q,8483825311744
Raw,1677089019000,1487887610075,18,0.0,-1361122749112462373,0.0,333.564095198152,-81.93094713905825,0.0,7,33,0.0,16399,324222919576194,111,27.0,-216.9682684980914,0.029999997711181815,16,0.0,0.1,1561097980,,,,1,,5,-4.0,,,,,,I,8483825311744
Raw,1677089019000,1487887610075,18,0.0,-1361122749112462373,0.0,333.564095198152,-81.93094713905825,0.0,7,42,0.0,16399,324222922525172,126,13.0,349.0053042753651,0.5,16,0.0,0.1,1561097980,,,,0,,5,-4.0,,,,,,I,8483825311744
Raw,1677089019000,1487887610075,18,0.0,-1361122749112462373,0.0,333.564095198152,-81.93094713905825,0.0,7,11,0.0,32995,75818925756512,94,24.0,-468.73312634499433,0.05,16,0.0,0.1,1601718780,,,,2,,3,-4.0,,,,,,C,8483825311744
Raw,1677089019000,1487887610075,18,0.0,-1361122749112462373,0.0,333.564095198152,-81.93094713905825,0.0,7,8,0.0,23560,324236920744699,5,32.0,-170.3637290184993,0.02,16,0.0,0.1,1575420030,,,,2,,6,-4.0,,,,,,A,8483825311744
Raw,1677089019000,1487887610075,18,0.0,-1361122749112462373,0.0,333.564095198152,-81.93094713905825,0.0,7,8,0.0,0,0,10,0.0,0.0,0.1,16,0.0,0.1,1561097980,,,,0,,5,-4.0,,,,,,I,8483825311744
Raw,1677089019000,1487887610075,18,0.0,-1361122749112462373,0.0,333.564095198152,-81.93094713905825,0.0,7,19,0.0,0,0,111,0.0,655.543087755581,0.029999997711181815,16,0.0,0.1,1603406210,,,,0,,3,-4.0,,,,,,C,8483825311744
Raw,1677089019000,1487887610075,18,0.0,-1361122749112462373,0.0,333.564095198152,-81.93094713905825,0.0,7,27,0.0,0,0,74,0.0,665.2053712098988,0.02,16,0.0,0.1,1575420030,,,,0,,1,-4.0,,,,,,C,8483825311744
Raw,1677089019000,1487887610075,18,0.0,-1361122749112462373,0.0,333.564095198152,-81.93094713905825,0.0,7,7,0.0,0,0,201,0.0,681.3465639364767,0.5,16,0.0,0.1,1575420030,,,,0,,6,-4.0,,,,,,A,8483825311744
Raw,1677089019000,1487887610075,18,0.0,-1361122749112462373,0.0,333.564095198152,-81.93094713905825,0.0,7,20,0.0,0,0,126,0.0,666.4642163347926,0.5,16,0.0,0.1,1602843780,,,,0,,3,-4.0,,,,,,C,8483825311744
Raw,1677089019000,1487887610075,18,0.0,-1361122749112462373,0.0,333.564095198152,-81.93094713905825,0.0,7,4,0.0,0,0,22,0.0,-335.2521887543675,0.05,16,0.0,0.1,1575420030,,,,0,,1,-4.0,,,,,,C,8483825311744
Raw,1677089019000,1487887610075,18,0.0,-1361122749112462373,0.0,333.564095198152,-81.93094713905825,0.0,7,5,0.0,0,0,334,0.0,566.6461136805884,0.5,16,0.0,0.1,1575420030,,,,0,,6,-4.0,,,,,,A,8483825311744
Raw,1677089019000,1487887610075,18,0.0,-1361122749112462373,0.0,333.564095198152,-81.93094713905825,0.0,7,13,0.0,0,0,42,0.0,560.8217817410789,0.30000000715255754,16,0.0,0.1,1575420030,,,,0,,1,-4.0,,,,,,C,8483825311744
Raw,1677089019000,1487887610075,18,0.0,-1361122749112462373,0.0,333.564095198152,-81.93094713905825,0.0,7,17,0.0,0,0,81,0.0,562.3996169906763,0.30000000715255754,16,0.0,0.1,1575420030,,,,0,,1,-4.0,,,,,,C,8483825311744
Raw,1677089019000,1487887610075,18,0.0,-1361122749112462373,0.0,333.564095198152,-81.93094713905825,0.0,7,21,0.0,0,0,161,0.0,567.818914153879,0.30000000715255754,16,0.0,0.1,1561097980,,,,0,,5,-4.0,,,,,,I,8483825311744
Status,1677089019000,41,0,1,9,1575420030,19.00,154.88057,38.6509,1,1,1,
Status,1677089019000,41,1,1,14,1575420030,23.00,239.76735,55.84892,1,1,1,
Status,1677089019000,41,2,1,30,1575420030,36.00,325.42896,62.883423,1,1,1,
Status,1677089019000,41,3,1,8,1575420030,14.00,58.887005,32.430244,1,1,1,
Status,1677089019000,41,4,1,9,1176450050,27.00,154.88057,38.6509,1,0,1,
Status,1677089019000,41,5,1,7,1575420030,27.00,59.06098,59.932243,1,1,1,
Status,1677089019000,41,6,6,3,1575420030,31.00,166.26776,54.817993,1,1,1,
Status,1677089019000,41,7,6,25,1176450050,25.00,45.264496,43.636105,1,1,1,
Status,1677089019000,41,8,3,10,1597781250,32.00,331.39783,59.02956,1,1,1,
Status,1677089019000,41,9,6,2,1575420030,25.00,283.17773,77.930214,1,1,1,
Status,1677089019000,41,10,3,9,1600593790,37.00,41.10835,36.398933,1,1,1,
Status,1677089019000,41,11,6,3,1176450050,30.00,166.26776,54.817993,1,1,1,
Status,1677089019000,41,12,3,1,1602281220,21.00,328.17648,20.493805,1,1,1,
Status,1677089019000,41,13,1,30,1176450050,26.00,325.42896,62.883423,1,0,1,
Status,1677089019000,41,14,3,7,1604531200,20.00,191.35199,41.094982,1,1,1,
Status,1677089019000,41,15,6,8,1176450050,26.00,293.52893,63.413845,1,1,1,
Status,1677089019000,41,16,3,8,1605093760,33.00,277.48303,60.968147,1,1,1,
Status,1677089019000,41,17,3,18,1600031230,17.00,23.081423,7.026777,1,1,1,
Status,1677089019000,41,18,5,14,1561097980,19.00,266.62524,46.948864,1,1,1,
Status,1677089019000,41,19,5,24,1561097980,24.00,285.71265,49.066032,1,1,1,
Status,1677089019000,41,20,5,29,1561097980,17.00,51.994263,15.247616,1,1,1,
Status,1677089019000,41,21,1,5,1575420030,20.00,294.1091,17.776842,1,1,1,
Status,1677089019000,41,22,1,20,1575420030,13.00,263.43466,16.702124,1,1,1,
Status,1677089019000,41,23,6,30,1575420030,12.00,240.15094,26.664621,1,1,1,
Status,1677089019000,41,24,5,26,1561097980,28.00,27.344091,64.78535,1,1,1,
Status,1677089019000,41,25,6,25,1575420030,26.00,45.264496,43.636105,1,1,1,
Status,1677089019000,41,26,6,2,1176450050,36.00,283.17773,77.930214,1,1,1,
Status,1677089019000,41,27,5,33,1561097980,28.00,299.47073,33.753345,1,0,1,
Status,1677089019000,41,28,5,42,1561097980,12.00,227.07246,45.84028,1,0,1,
Status,1677089019000,41,29,3,11,1601718780,23.00,267.4399,23.742802,1,1,1,
Status,1677089019000,41,30,6,8,1575420030,30.00,293.52893,63.413845,1,1,1,
Status,1677089019000,41,31,5,8,1561097980,0.00,322.12396,7.661544,0,1,1,
Status,1677089019000,41,32,3,19,1603406210,0.00,64.53011,18.293232,0,1,1,
Status,1677089019000,41,33,1,27,1575420030,0.00,35.91293,8.314987,0,1,1,
Status,1677089019000,41,34,6,7,1575420030,0.00,318.60208,13.742667,0,1,1,
Status,1677089019000,41,35,3,20,1602843780,0.00,123.30922,8.536596,0,1,1,
Status,1677089019000,41,36,1,4,1575420030,0.00,144.47368,6.845088,0,1,1,
Status,1677089019000,41,37,6,5,1575420030,0.00,147.96248,5.894796,0,1,1,
Status,1677089019000,41,38,1,13,1575420030,0.00,316.31815,15.845285,0,1,1,
Status,1677089019000,41,39,1,17,1575420030,0.00,180.46591,10.5315,0,1,1,
Status,1677089019000,41,40,5,21,1561097980,0.00,178.96786,14.722439,0,1,1,
Fix,GPS,37.7951607262,-122.4003541808,-28.225268029607832,0.46356252,4.7,169.16542,1677089020000,0.15,5.0,8484823850286,4.7
Raw,1677089020000,1488887610075,18,0.0,-1361122749112462629,0.0,333.564095198152,-81.50838658411676,0.0,7,9,0.0,16399,324237926189131,161,19.0,563.8130068687944,0.30000000715255754,16,0.0,0.1,1575420030,,,,1,,1,-3.0,,,,,,C,8484824649244
Raw,1677089020000,1488887610075,18,0.0,-1361122749112462629,0.0,333.564095198152,-81.50838658411676,0.0,7,14,0.0,16399,324237929625159,7,23.0,-363.0991485120881,0.05,16,0.0,0.1,1575420030,,,,2,,1,-3.0,,,,,,C,8484824649244
Raw,1677089020000,1488887610075,18,0.0,-1361122749112462629,0.0,333.564095198152,-81.50838658411676,0.0,7,30,0.0,16399,324237930098070,5,36.0,-235.41866109380084,0.01,16,0.0,0.1,1575420030,,,,2,,1,-3.0,,,,,,C,8484824649244
Raw,1677089020000,1488887610075,18,0.0,-1361122749112462629,0.0,333.564095198152,-81.50838658411676,0.0,7,8,0.0,16399,324237925099354,201,14.0,270.42383639902863,0.5,16,0.0,0.1,1575420030,,,,0,,1,-3.0,,,,,,C,8484824649244
Raw,1677089020000,1488887610075,18,0.0,-1361122749112462629,0.0,333.564095198152,-81.50838658411676,0.0,7,9,0.0,16399,324237926189111,6,27.0,561.925497996118,0.029999997711181815,16,0.0,0.1,1176450050,,,,2,,1,4.0,,,,,,Q,8484824649244
Raw,1677089020000,1488887610075,18,0.0,-1361122749112462629,0.0,333.564095198152,-81.50838658411676,0.0,7,7,0.0,16399,324237930134005,6,27.0,88.61626831789205,0.029999997711181815,16,0.0,0.1,1575420030,,,,2,,1,-3.0,,,,,,C,8484824649244
Raw,1677089020000,1488887610075,18,0.0,-1361122749112462629,0.0,333.564095198152,-81.50838658411676,0.0,7,3,0.0,23560,324237918799604,6,31.0,338.7358312429348,0.02,16,0.0,0.1,1575420030,,,,2,,6,-3.0,,,,,,A,8484824649244
Raw,1677089020000,1488887610075,18,0.0,-1361122749112462629,0.0,333.564095198152,-81.50838658411676,0.0,7,25,0.0,23560,324237916610496,7,25.0,346.8277077206987,0.05,16,0.0,0.1,1176450050,,,,2,,6,4.0,,,,,,Q,8484824649244
Raw,1677089020000,1488887610075,18,0.0,-1361122749112462629,0.0,333.564095198152,-81.50838658411676,0.0,7,10,0.0,32995,75819933915636,25,32.0,14.630938657160423,0.02,16,0.0,0.1,1597781250,,,,1,,3,-3.0,,,,,,C,8484824649244
Raw,1677089020000,1488887610075,18,0.0,-1361122749112462629,0.0,333.564095198152,-81.50838658411676,0.0,7,2,0.0,23560,324237922284708,11,25.0,-57.24930379077052,0.05,16,0.0,0.1,1575420030,,,,1,,6,-3.0,,,,,,A,8484824649244
Raw,1677089020000,1488887610075,18,0.0,-1361122749112462629,0.0,333.564095198152,-81.50838658411676,0.0,7,9,0.0,32995,75819929444770,19,37.0,420.916921458908,0.01,16,0.0,0.1,1600593790,,,,1,,3,-3.0,,,,,,C,8484824649244
Raw,1677089020000,1488887610075,18,0.0,-1361122749112462629,0.0,333.564095198152,-81.50838658411676,0.0,7,3,0.0,23560,324237918799581,6,30.0,338.91847786042496,0.029999997711181815,16,0.0,0.1,1176450050,,,,2,,6,4.0,,,,,,Q,8484824649244
Raw,1677089020000,1488887610075,18,0.0,-1361122749112462629,0.0,333.564095198152,-81.50838658411676,0.0,7,1,0.0,32995,75819924791713,134,21.0,-668.8055145043464,0.30000000715255754,16,0.0,0.1,1602281220,,,,2,,3,-3.0,,,,,,C,8484824649244
Raw,1677089020000,1488887610075,18,0.0,-1361122749112462629,0.0,333.564095198152,-81.50838658411676,0.0,7,30,0.0,16399,324237930098093,7,26.0,-235.32769791352885,0.05,16,0.0,0.1,1176450050,,,,2,,1,4.0,,,,,,Q,8484824649244
Raw,1677089020000,1488887610075,18,0.0,-1361122749112462629,0.0,333.564095198152,-81.50838658411676,0.0,7,7,0.0,32995,75819930614619,41,20.0,641.2878318245449,0.30000000715255754,16,0.0,0.1,1604531200,,,,2,,3,-3.0,,,,,,C,8484824649244
Raw,1677089020000,1488887610075,18,0.0,-1361122749112462629,0.0,333.564095198152,-81.50838658411676,0.0,7,8,0.0,23560,324237920745250,7,26.0,-169.95333925538117,0.05,16,0.0,0.1,1176450050,,,,2,,6,4.0,,,,,,Q,8484824649244
Raw,1677089020000,1488887610075,18,0.0,-1361122749112462629,0.0,333.564095198152,-81.50838658411676,0.0,7,8,0.0,32995,75819934039015,25,33.0,-40.097565733040916,0.02,16,0.0,0.1,1605093760,,,,1,,3,-3.0,,,,,,C,8484824649244
Raw,1677089020000,1488887610075,18,0.0,-1361122749112462629,0.0,333.564095198152,-81.50838658411676,0.0,7,18,0.0,32995,75819920272422,31,17.0,273.59123489462655,0.029999997711181815,16,0.0,0.1,1600031230,,,,2,,3,-3.0,,,,,,C,8484824649244
Raw,1677089020000,1488887610075,18,0.0,-1361122749112462629,0.0,333.564095198152,-81.50838658411676,0.0,7,14,0.0,16399,324223924044240,101,19.0,79.4646232581085,0.30000000715255754,16,0.0,0.1,1561097980,,,,0,,5,-3.0,,,,,,I,8484824649244
Raw,1677089020000,1488887610075,18,0.0,-1361122749112462629,0.0,333.564095198152,-81.50838658411676,0.0,7,24,0.0,16399,324223923782376,34,24.0,-280.5116462611056,0.05,16,0.0,0.1,1561097980,,,,0,,5,-3.0,,,,,,I,8484824649244
Raw,1677089020000,1488887610075,18,0.0,-1361122749112462629,0.0,333.564095198152,-81.50838658411676,0.0,7,29,0.0,16399,324223914964725,161,17.0,94.47370993996697,0.30000000715255754,16,0.0,0.1,1561097980,,,,1,,5,-3.0,,,,,,I,8484824649244
Raw,1677089020000,1488887610075,18,0.0,-1361122749112462629,0.0,333.564095198152,-81.50838658411676,0.0,7,5,0.0,16399,324237920380575,161,20.0,30.651802869822912,0.30000000715255754,16,0.0,0.1,1575420030,,,,1,,1,-3.0,,,,,,C,8484824649244
Raw,1677089020000,1488887610075,18,0.0,-1361122749112462629,0.0,333.564095198152,-81.50838658411676,0.0,7,20,0.0,16399,324237920748663,126,13.0,307.76465866708037,0.5,16,0.0,0.1,1575420030,,,,0,,1,-3.0,,,,,,C,8484824649244
Raw,1677089020000,1488887610075,18,0.0,-1361122749112462629,0.0,333.564095198152,-81.50838658411676,0.0,7,30,0.0,23560,324237911489960,126,12.0,-437.7659610542449,0.5,16,0.0,0.1,1575420030,,,,0,,6,-3.0,,,,,,A,8484824649244
Raw,1677089020000,1488887610075,18,0.0,-1361122749112462629,0.0,333.564095198152,-81.50838658411676,0.0,7,26,0.0,16399,324223926617681,6,28.0,118.03371589581326,0.029999997711181815,16,0.0,0.1,1561097980,,,,2,,5,-3.0,,,,,,I,8484824649244
Raw,1677089020000,1488887610075,18,0.0,-1361122749112462629,0.0,333.564095198152,-81.50838658411676,0.0,7,25,0.0,23560,324237916610457,11,26.0,346.3357058465261,0.05,16,0.0,0.1,1575420030,,,,1,,6,-3.0,,,,,,A,8484824649244
Raw,1677089020000,1488887610075,18,0.0,-1361122749112462629,0.0,333.564095198152,-81.50838658411676,0.0,7,2,0.0,23560,324237922284650,5,36.0,-57.726619806090994,0.01,16,0.0,0.1,1176450050,,,,2,,6,4.0,,,,,,Q,8484824649244
Raw,1677089020000,1488887610075,18,0.0,-1361122749112462629,0.0,333.564095198152,-81.50838658411676,0.0,7,33,0.0,16399,324223919576864,19,28.0,-216.7058786091423,0.029999997711181815,16,0.0,0.1,1561097980,,,,2,,5,-3.0,,,,,,I,8484824649244
Raw,1677089020000,1488887610075,18,0.0,-1361122749112462629,0.0,333.564095198152,-81.50838658411676,0.0,7,42,0.0,16399,324223922524022,126,12.0,349.649610582905,0.5,16,0.0,0.1,1561097980,,,,1,,5,-3.0,,,,,,I,8484824649244
Raw,1677089020000,1488887610075,18,0.0,-1361122749112462629,0.0,333.564095198152,-81.50838658411676,0.0,7,11,0.0,32995,75819925758016,280,23.0,-469.20682133584444,0.05,16,0.0,0.1,1601718780,,,,1,,3,-3.0,,,,,,C,8484824649244
Raw,1677089020000,1488887610075,18,0.0,-1361122749112462629,0.0,333.564095198152,-81.50838658411676,0.0,7,8,0.0,23560,324237920745272,6,30.0,-170.2630129794569,0.029999997711181815,16,0.0,0.1,1575420030,,,,2,,6,-3.0,,,,,,A,8484824649244
Raw,1677089020000,1488887610075,18,0.0,-1361122749112462629,0.0,333.564095198152,-81.50838658411676,0.0,7,8,0.0,0,0,10,0.0,0.0,0.1,16,0.0,0.1,1561097980,,,,0,,5,-3.0,,,,,,I,8484824649244
Raw,1677089020000,1488887610075,18,0.0,-1361122749112462629,0.0,333.564095198152,-81.50838658411676,0.0,7,19,0.0,0,0,111,0.0,655.543087755581,0.029999997711181815,16,0.0,0.1,1603406210,,,,0,,3,-3.0,,,,,,C,8484824649244
Raw,1677089020000,1488887610075,18,0.0,-1361122749112462629,0.0,333.564095198152,-81.50838658411676,0.0,7,27,0.0,0,0,74,0.0,665.2053712098988,0.02,16,0.0,0.1,1575420030,,,,0,,1,-3.0,,,,,,C,8484824649244
Raw,1677089020000,1488887610075,18,0.0,-1361122749112462629,0.0,333.564095198152,-81.50838658411676,0.0,7,7,0.0,0,0,201,0.0,681.3465639364767,0.5,16,0.0,0.1,1575420030,,,,0,,6,-3.0,,,,,,A,8484824649244
Raw,1677089020000,1488887610075,18,0.0,-1361122749112462629,0.0,333.564095198152,-81.50838658411676,0.0,7,20,0.0,0,0,126,0.0,666.4642163347926,0.5,16,0.0,0.1,1602843780,,,,0,,3,-3.0,,,,,,C,8484824649244
Raw,1677089020000,1488887610075,18,0.0,-1361122749112462629,0.0,333.564095198152,-81.50838658411676,0.0,7,4,0.0,0,0,22,0.0,-335.2521887543675,0.05,16,0.0,0.1,1575420030,,,,0,,1,-3.0,,,,,,C,8484824649244
Raw,1677089020000,1488887610075,18,0.0,-1361122749112462629,0.0,333.564095198152,-81.50838658411676,0.0,7,5,0.0,0,0,334,0.0,566.6461136805884,0.5,16,0.0,0.1,1575420030,,,,0,,6,-3.0,,,,,,A,8484824649244
Raw,1677089020000,1488887610075,18,0.0,-1361122749112462629,0.0,333.564095198152,-81.50838658411676,0.0,7,13,0.0,0,0,42,0.0,560.8217817410789,0.30000000715255754,16,0.0,0.1,1575420030,,,,0,,1,-3.0,,,,,,C,8484824649244
Raw,1677089020000,1488887610075,18,0.0,-1361122749112462629,0.0,333.564095198152,-81.50838658411676,0.0,7,17,0.0,0,0,81,0.0,562.3996169906763,0.30000000715255754,16,0.0,0.1,1575420030,,,,0,,1,-3.0,,,,,,C,8484824649244
Raw,1677089020000,1488887610075,18,0.0,-1361122749112462629,0.0,333.564095198152,-81.50838658411676,0.0,7,21,0.0,0,0,161,0.0,567.818914153879,0.30000000715255754,16,0.0,0.1,1561097980,,,,0,,5,-3.0,,,,,,I,8484824649244
Status,1677089020000,42,0,1,9,1575420030,20.00,154.88313,38.643074,1,1,1,
Status,1677089020000,42,1,1,14,1575420030,20.00,239.7761,55.85565,1,1,1,
Status,1677089020000,42,2,1,30,1575420030,37.00,325.4415,62.888184,1,1,1,
Status,1677089020000,42,3,1,8,1575420030,14.00,58.879234,32.42686,1,1,1,
Status,1677089020000,42,4,1,9,1176450050,28.00,154.88313,38.643074,1,0,1,
Status,1677089020000,42,5,1,8,1176450050,21.00,58.879333,32.427,1,0,1,
Status,1677089020000,42,6,1,7,1575420030,29.00,59.07405,59.9283,1,1,1,
Status,1677089020000,42,7,6,3,1575420030,33.00,166.26999,54.81114,1,1,1,
Status,1677089020000,42,8,1,27,1575420030,17.00,35.91296,8.315032,1,1,1,
Status,1677089020000,42,9,6,25,1176450050,24.00,45.266384,43.630657,1,1,1,
Status,1677089020000,42,10,3,10,1597781250,33.00,331.41586,59.028774,1,1,1,
Status,1677089020000,42,11,6,2,1575420030,26.00,283.2085,77.93205,1,1,1,
Status,1677089020000,42,12,3,9,1600593790,38.00,41.115826,36.39295,1,1,1,
Status,1677089020000,42,13,6,3,1176450050,31.00,166.26999,54.81114,1,1,1,
Status,1677089020000,42,14,3,1,1602281220,22.00,328.1724,20.5006,1,1,1,
Status,1677089020000,42,15,1,30,1176450050,25.00,325.4415,62.888184,1,0,1,
Status,1677089020000,42,16,3,7,1604531200,20.00,191.35056,41.085403,1,1,1,
Status,1677089020000,42,17,6,8,1176450050,26.00,293.51743,63.417484,1,1,1,
Status,1677089020000,42,18,3,8,1605093760,33.00,277.46283,60.968334,1,1,1,
Status,1677089020000,42,19,3,18,1600031230,18.00,23.074257,7.0240355,1,1,1,
Status,1677089020000,42,20,5,14,1561097980,20.00,266.61472,46.947205,1,1,1,
Status,1677089020000,42,21,5,24,1561097980,24.00,285.7211,49.070297,1,1,1,
Status,1677089020000,42,22,5,29,1561097980,16.00,51.988003,15.246396,1,1,1,
Status,1677089020000,42,23,1,5,1575420030,25.00,294.10156,17.776503,1,1,1,
Status,1677089020000,42,24,1,20,1575420030,10.00,263.42773,16.698626,1,1,1,
Status,1677089020000,42,25,6,30,1575420030,11.00,240.15619,26.669132,1,1,1,
Status,1677089020000,42,26,5,26,1561097980,29.00,27.357271,64.78158,1,1,1,
Status,1677089020000,42,27,6,25,1575420030,24.00,45.266384,43.630657,1,1,1,
Status,1677089020000,42,28,6,2,1176450050,37.00,283.2085,77.93205,1,1,1,
Status,1677089020000,42,29,5,33,1561097980,28.00,299.46332,33.755733,1,0,1,
Status,1677089020000,42,30,5,42,1561097980,12.00,227.06544,45.834442,1,0,1,
Status,1677089020000,42,31,3,11,1601718780,25.00,267.44818,23.747684,1,1,1,
Status,1677089020000,42,32,6,8,1575420030,29.00,293.51743,63.417484,1,1,1,
Status,1677089020000,42,33,5,8,1561097980,0.00,322.12146,7.6602306,0,1,1,
Status,1677089020000,42,34,3,19,1603406210,0.00,64.521355,18.295538,0,1,1,
Status,1677089020000,42,35,6,7,1575420030,0.00,318.6017,13.747669,0,1,1,
Status,1677089020000,42,36,3,20,1602843780,0.00,123.30369,8.543177,0,1,1,
Status,1677089020000,42,37,1,4,1575420030,0.00,144.47595,6.8385143,0,1,1,
Status,1677089020000,42,38,6,5,1575420030,0.00,147.9644,5.8894796,0,1,1,
Status,1677089020000,42,39,1,13,1575420030,0.00,316.31857,15.851889,0,1,1,
Status,1677089020000,42,40,1,17,1575420030,0.00,180.46408,10.538422,0,1,1,
Status,1677089020000,42,41,5,21,1561097980,0.00,178.96681,14.715959,0,1,1,
Raw,1677089021000,1489887610075,18,0.0,-1361122749112462629,0.0,333.564095198152,-81.6490327713224,0.0,7,9,0.0,16399,324238926187253,27,20.0,563.8449963920064,0.30000000715255754,16,0.0,0.1,1575420030,,,,2,,1,-3.0,,,,,,C,8485810626848
Raw,1677089021000,1489887610075,18,0.0,-1361122749112462629,0.0,333.564095198152,-81.6490327713224,0.0,7,14,0.0,16399,324238929626380,13,20.0,-363.32553747063105,0.30000000715255754,16,0.0,0.1,1575420030,,,,1,,1,-3.0,,,,,,C,8485810626848
Raw,1677089021000,1489887610075,18,0.0,-1361122749112462629,0.0,333.564095198152,-81.6490327713224,0.0,7,30,0.0,16399,324238930098850,5,37.0,-235.33184773580942,0.01,16,0.0,0.1,1575420030,,,,2,,1,-3.0,,,,,,C,8485810626848
Raw,1677089021000,1489887610075,18,0.0,-1361122749112462629,0.0,333.564095198152,-81.6490327713224,0.0,7,8,0.0,16399,324238925098443,201,14.0,271.18823123919566,0.5,16,0.0,0.1,1575420030,,,,0,,1,-3.0,,,,,,C,8485810626848
Raw,1677089021000,1489887610075,18,0.0,-1361122749112462629,0.0,333.564095198152,-81.6490327713224,0.0,7,9,0.0,16399,324238926187235,6,28.0,562.5506036114708,0.029999997711181815,16,0.0,0.1,1176450050,,,,2,,1,6.0,,,,,,Q,8485810626848
Raw,1677089021000,1489887610075,18,0.0,-1361122749112462629,0.0,333.564095198152,-81.6490327713224,0.0,7,8,0.0,16399,324238925098253,6,21.0,272.6906526374371,0.029999997711181815,16,0.0,0.1,1176450050,,,,0,,1,6.0,,,,,,Q,8485810626848
Raw,1677089021000,1489887610075,18,0.0,-1361122749112462629,0.0,333.564095198152,-81.6490327713224,0.0,7,7,0.0,16399,324238930133715,6,29.0,88.55953968804798,0.029999997711181815,16,0.0,0.1,1575420030,,,,2,,1,-3.0,,,,,,C,8485810626848
Raw,1677089021000,1489887610075,18,0.0,-1361122749112462629,0.0,333.564095198152,-81.6490327713224,0.0,7,3,0.0,23560,324238918798482,5,33.0,338.759705061565,0.02,16,0.0,0.1,1575420030,,,,2,,6,-3.0,,,,,,A,8485810626848
Raw,1677089021000,1489887610075,18,0.0,-1361122749112462629,0.0,333.564095198152,-81.6490327713224,0.0,7,27,0.0,16399,324238917858559,7,17.0,555.77150576607,0.05,16,0.0,0.1,1575420030,,,,0,,1,-3.0,,,,,,C,8485810626848
Raw,1677089021000,1489887610075,18,0.0,-1361122749112462629,0.0,333.564095198152,-81.6490327713224,0.0,7,25,0.0,23560,324238916609339,7,24.0,346.1232988513314,0.05,16,0.0,0.1,1176450050,,,,2,,6,6.0,,,,,,Q,8485810626848
Raw,1677089021000,1489887610075,18,0.0,-1361122749112462629,0.0,333.564095198152,-81.6490327713224,0.0,7,10,0.0,32995,75820933915585,25,33.0,14.807237325215466,0.02,16,0.0,0.1,1597781250,,,,1,,3,-3.0,,,,,,C,8485810626848
Raw,1677089021000,1489887610075,18,0.0,-1361122749112462629,0.0,333.564095198152,-81.6490327713224,0.0,7,2,0.0,23560,324238922284902,11,26.0,-57.767425470256526,0.05,16,0.0,0.1,1575420030,,,,1,,6,-3.0,,,,,,A,8485810626848
Raw,1677089021000,1489887610075,18,0.0,-1361122749112462629,0.0,333.564095198152,-81.6490327713224,0.0,7,9,0.0,32995,75820929443358,19,38.0,421.00616198104325,0.01,16,0.0,0.1,1600593790,,,,1,,3,-3.0,,,,,,C,8485810626848
Raw,1677089021000,1489887610075,18,0.0,-1361122749112462629,0.0,333.564095198152,-81.6490327713224,0.0,7,3,0.0,23560,324238918798451,6,31.0,338.8121971130861,0.02,16,0.0,0.1,1176450050,,,,2,,6,6.0,,,,,,Q,8485810626848
Raw,1677089021000,1489887610075,18,0.0,-1361122749112462629,0.0,333.564095198152,-81.6490327713224,0.0,7,1,0.0,32995,75820924793897,44,22.0,-668.8605698057485,0.05,16,0.0,0.1,1602281220,,,,1,,3,-3.0,,,,,,C,8485810626848
Raw,1677089021000,1489887610075,18,0.0,-1361122749112462629,0.0,333.564095198152,-81.6490327713224,0.0,7,30,0.0,16399,324238930098874,7,25.0,-234.9357504752031,0.05,16,0.0,0.1,1176450050,,,,2,,1,6.0,,,,,,Q,8485810626848
Raw,1677089021000,1489887610075,18,0.0,-1361122749112462629,0.0,333.564095198152,-81.6490327713224,0.0,7,7,0.0,32995,75820930612462,41,20.0,641.3920262119545,0.30000000715255754,16,0.0,0.1,1604531200,,,,2,,3,-3.0,,,,,,C,8485810626848
Raw,1677089021000,1489887610075,18,0.0,-1361122749112462629,0.0,333.564095198152,-81.6490327713224,0.0,7,8,0.0,23560,324238920745820,7,26.0,-169.92146241907764,0.05,16,0.0,0.1,1176450050,,,,2,,6,6.0,,,,,,Q,8485810626848
Raw,1677089021000,1489887610075,18,0.0,-1361122749112462629,0.0,333.564095198152,-81.6490327713224,0.0,7,8,0.0,32995,75820934039141,25,33.0,-39.99544843911971,0.02,16,0.0,0.1,1605093760,,,,1,,3,-3.0,,,,,,C,8485810626848
Raw,1677089021000,1489887610075,18,0.0,-1361122749112462629,0.0,333.564095198152,-81.6490327713224,0.0,7,18,0.0,32995,75820920271516,101,18.0,273.97303270705765,0.30000000715255754,16,0.0,0.1,1600031230,,,,0,,3,-3.0,,,,,,C,8485810626848
Raw,1677089021000,1489887610075,18,0.0,-1361122749112462629,0.0,333.564095198152,-81.6490327713224,0.0,7,14,0.0,16399,324224924043928,34,20.0,80.00449109928506,0.05,16,0.0,0.1,1561097980,,,,0,,5,-3.0,,,,,,I,8485810626848
Raw,1677089021000,1489887610075,18,0.0,-1361122749112462629,0.0,333.564095198152,-81.6490327713224,0.0,7,24,0.0,16399,324224923783254,161,24.0,-280.6227482069591,0.30000000715255754,16,0.0,0.1,1561097980,,,,0,,5,-3.0,,,,,,I,8485810626848
Raw,1677089021000,1489887610075,18,0.0,-1361122749112462629,0.0,333.564095198152,-81.6490327713224,0.0,7,29,0.0,16399,324224914964409,201,16.0,94.33858547658461,0.5,16,0.0,0.1,1561097980,,,,1,,5,-3.0,,,,,,I,8485810626848
Raw,1677089021000,1489887610075,18,0.0,-1361122749112462629,0.0,333.564095198152,-81.6490327713224,0.0,7,5,0.0,16399,324238920380474,126,25.0,30.401757866475766,0.5,16,0.0,0.1,1575420030,,,,1,,1,-3.0,,,,,,C,8485810626848
Raw,1677089021000,1489887610075,18,0.0,-1361122749112462629,0.0,333.564095198152,-81.6490327713224,0.0,7,20,0.0,16399,324238920747602,126,10.0,307.3428452843988,0.5,16,0.0,0.1,1575420030,,,,0,,1,-3.0,,,,,,C,8485810626848
Raw,1677089021000,1489887610075,18,0.0,-1361122749112462629,0.0,333.564095198152,-81.6490327713224,0.0,7,30,0.0,23560,324238911491416,6,11.0,-438.49136276495625,0.029999997711181815,16,0.0,0.1,1575420030,,,,0,,6,-3.0,,,,,,A,8485810626848
Raw,1677089021000,1489887610075,18,0.0,-1361122749112462629,0.0,333.564095198152,-81.6490327713224,0.0,7,26,0.0,16399,324224926617285,6,29.0,118.1383887853776,0.029999997711181815,16,0.0,0.1,1561097980,,,,2,,5,-3.0,,,,,,I,8485810626848
Raw,1677089021000,1489887610075,18,0.0,-1361122749112462629,0.0,333.564095198152,-81.6490327713224,0.0,7,25,0.0,23560,324238916609275,11,24.0,346.3362197927554,0.05,16,0.0,0.1,1575420030,,,,1,,6,-3.0,,,,,,A,8485810626848
Raw,1677089021000,1489887610075,18,0.0,-1361122749112462629,0.0,333.564095198152,-81.6490327713224,0.0,7,2,0.0,23560,324238922284842,5,37.0,-57.73399603913171,0.01,16,0.0,0.1,1176450050,,,,2,,6,6.0,,,,,,Q,8485810626848
Raw,1677089021000,1489887610075,18,0.0,-1361122749112462629,0.0,333.564095198152,-81.6490327713224,0.0,7,33,0.0,16399,324224919577541,19,28.0,-216.54780411437596,0.029999997711181815,16,0.0,0.1,1561097980,,,,2,,5,-3.0,,,,,,I,8485810626848
Raw,1677089021000,1489887610075,18,0.0,-1361122749112462629,0.0,333.564095198152,-81.6490327713224,0.0,7,42,0.0,16399,324224922522855,201,12.0,350.2298871233646,0.5,16,0.0,0.1,1561097980,,,,0,,5,-3.0,,,,,,I,8485810626848
Raw,1677089021000,1489887610075,18,0.0,-1361122749112462629,0.0,333.564095198152,-81.6490327713224,0.0,7,11,0.0,32995,75820925759539,560,25.0,-469.12711676512174,0.05,16,0.0,0.1,1601718780,,,,1,,3,-3.0,,,,,,C,8485810626848
Raw,1677089021000,1489887610075,18,0.0,-1361122749112462629,0.0,333.564095198152,-81.6490327713224,0.0,7,8,0.0,23560,324238920745840,6,29.0,-170.28339660956925,0.029999997711181815,16,0.0,0.1,1575420030,,,,2,,6,-3.0,,,,,,A,8485810626848
Raw,1677089021000,1489887610075,18,0.0,-1361122749112462629,0.0,333.564095198152,-81.6490327713224,0.0,7,8,0.0,0,0,10,0.0,0.0,0.1,16,0.0,0.1,1561097980,,,,0,,5,-3.0,,,,,,I,8485810626848
Raw,1677089021000,1489887610075,18,0.0,-1361122749112462629,0.0,333.564095198152,-81.6490327713224,0.0,7,19,0.0,0,0,111,0.0,655.543087755581,0.029999997711181815,16,0.0,0.1,1603406210,,,,0,,3,-3.0,,,,,,C,8485810626848
Raw,1677089021000,1489887610075,18,0.0,-1361122749112462629,0.0,333.564095198152,-81.6490327713224,0.0,7,7,0.0,0,0,74,0.0,665.2053712098988,0.02,16,0.0,0.1,1575420030,,,,0,,6,-3.0,,,,,,A,8485810626848
Raw,1677089021000,1489887610075,18,0.0,-1361122749112462629,0.0,333.564095198152,-81.6490327713224,0.0,7,20,0.0,0,0,201,0.0,669.6891095946215,0.5,16,0.0,0.1,1602843780,,,,0,,3,-3.0,,,,,,C,8485810626848
Raw,1677089021000,1489887610075,18,0.0,-1361122749112462629,0.0,333.564095198152,-81.6490327713224,0.0,7,4,0.0,0,0,126,0.0,678.065534112091,0.5,16,0.0,0.1,1575420030,,,,0,,1,-3.0,,,,,,C,8485810626848
Raw,1677089021000,1489887610075,18,0.0,-1361122749112462629,0.0,333.564095198152,-81.6490327713224,0.0,7,5,0.0,0,0,22,0.0,-335.2521887543675,0.05,16,0.0,0.1,1575420030,,,,0,,6,-3.0,,,,,,A,8485810626848
Raw,1677089021000,1489887610075,18,0.0,-1361122749112462629,0.0,333.564095198152,-81.6490327713224,0.0,7,13,0.0,0,0,334,0.0,566.6461136805884,0.5,16,0.0,0.1,1575420030,,,,0,,1,-3.0,,,,,,C,8485810626848
Raw,1677089021000,1489887610075,18,0.0,-1361122749112462629,0.0,333.564095198152,-81.6490327713224,0.0,7,17,0.0,0,0,42,0.0,560.8217817410789,0.30000000715255754,16,0.0,0.1,1575420030,,,,0,,1,-3.0,,,,,,C,8485810626848
Raw,1677089021000,1489887610075,18,0.0,-1361122749112462629,0.0,333.564095198152,-81.6490327713224,0.0,7,21,0.0,0,0,81,0.0,567.5592465043522,0.30000000715255754,16,0.0,0.1,1561097980,,,,0,,5,-3.0,,,,,,I,8485810626848
Fix,GPS,37.7951607262,-122.4003541808,-28.225268029607832,0.0,4.9,169.16542,1677089021000,0.15,5.0,8485810262786,4.9
Status,1677089021000,42,0,1,9,1575420030,21.00,154.88568,38.635227,1,1,1,
Status,1677089021000,42,1,1,14,1575420030,22.00,239.7848,55.862385,1,1,1,
Status,1677089021000,42,2,1,30,1575420030,35.00,325.45407,62.892963,1,1,1,
Status,1677089021000,42,3,1,8,1575420030,12.00,58.87147,32.423473,1,1,1,
Status,1677089021000,42,4,1,9,1176450050,28.00,154.88568,38.635227,1,0,1,
Status,1677089021000,42,5,1,8,1176450050,17.00,58.871593,32.42365,1,0,1,
Status,1677089021000,42,6,1,7,1575420030,27.00,59.087143,59.92435,1,1,1,
Status,1677089021000,42,7,6,3,1575420030,33.00,166.27219,54.80427,1,1,1,
Status,1677089021000,42,8,1,13,1575420030,17.00,316.31857,15.851836,1,1,1,
Status,1677089021000,42,9,1,27,1575420030,12.00,35.90912,8.309889,1,1,1,
Status,1677089021000,42,10,6,25,1176450050,23.00,45.268284,43.625206,1,1,1,
Status,1677089021000,42,11,3,10,1597781250,34.00,331.43393,59.028004,1,1,1,
Status,1677089021000,42,12,6,2,1575420030,23.00,283.23917,77.93391,1,1,1,
Status,1677089021000,42,13,3,9,1600593790,38.00,41.12331,36.386963,1,1,1,
Status,1677089021000,42,14,6,3,1176450050,33.00,166.27219,54.80427,1,1,1,
Status,1677089021000,42,15,3,1,1602281220,22.00,328.16827,20.507412,1,1,1,
Status,1677089021000,42,16,1,30,1176450050,23.00,325.45407,62.892963,1,0,1,
Status,1677089021000,42,17,3,7,1604531200,24.00,191.34909,41.075813,1,1,1,
Status,1677089021000,42,18,6,8,1176450050,27.00,293.50592,63.42114,1,1,1,
Status,1677089021000,42,19,3,8,1605093760,33.00,277.44263,60.968533,1,1,1,
Status,1677089021000,42,20,3,18,1600031230,19.00,23.067091,7.02129,1,1,1,
Status,1677089021000,42,21,5,14,1561097980,20.00,266.6042,46.945545,1,1,1,
Status,1677089021000,42,22,5,24,1561097980,22.00,285.72958,49.074562,1,1,1,
Status,1677089021000,42,23,5,29,1561097980,14.00,51.98174,15.2451725,1,1,1,
Status,1677089021000,42,24,1,5,1575420030,26.00,294.09402,17.776209,1,1,1,
Status,1677089021000,42,25,1,20,1575420030,10.00,263.42078,16.695202,1,1,1,
Status,1677089021000,42,26,6,30,1575420030,11.00,240.1614,26.673738,1,1,1,
Status,1677089021000,42,27,5,26,1561097980,31.00,27.370481,64.77781,1,1,1,
Status,1677089021000,42,28,6,25,1575420030,27.00,45.268284,43.625206,1,1,1,
Status,1677089021000,42,29,6,2,1176450050,37.00,283.23917,77.93391,1,1,1,
Status,1677089021000,42,30,5,33,1561097980,26.00,299.45587,33.758133,1,0,1,
Status,1677089021000,42,31,5,42,1561097980,9.00,227.05847,45.828426,1,0,1,
Status,1677089021000,42,32,3,11,1601718780,25.00,267.45642,23.752579,1,1,1,
Status,1677089021000,42,33,6,8,1575420030,29.00,293.50592,63.42114,1,1,1,
Status,1677089021000,42,34,5,8,1561097980,0.00,322.11896,7.6589165,0,1,1,
Status,1677089021000,42,35,3,19,1603406210,0.00,64.512596,18.297836,0,1,1,
Status,1677089021000,42,36,6,7,1575420030,0.00,318.60132,13.752672,0,1,1,
Status,1677089021000,42,37,3,20,1602843780,0.00,123.29815,8.549756,0,1,1,
Status,1677089021000,42,38,1,4,1575420030,0.00,144.47823,6.831941,0,1,1,
Status,1677089021000,42,39,6,5,1575420030,0.00,147.96632,5.884165,0,1,1,
Status,1677089021000,42,40,1,17,1575420030,0.00,180.46223,10.545347,0,1,1,
Status,1677089021000,42,41,5,21,1561097980,0.00,178.96576,14.70948,0,1,1,
Fix,GPS,37.7951607262,-122.4003541808,-28.225268029607832,0.0,4.9,169.16542,1677089022000,0.15,5.0,8486823063306,4.9
Raw,1677089022000,1490887610075,18,0.0,-1361122749112462629,0.0,333.564095198152,-81.92418576311847,0.0,7,9,0.0,16399,324239926185378,27,21.0,563.4583897778595,0.30000000715255754,16,0.0,0.1,1575420030,,,,2,,1,-3.0,,,,,,C,8486823675806
Raw,1677089022000,1490887610075,18,0.0,-1361122749112462629,0.0,333.564095198152,-81.92418576311847,0.0,7,14,0.0,16399,324239929627600,7,22.0,-362.966936570506,0.05,16,0.0,0.1,1575420030,,,,2,,1,-3.0,,,,,,C,8486823675806
Raw,1677089022000,1490887610075,18,0.0,-1361122749112462629,0.0,333.564095198152,-81.92418576311847,0.0,7,30,0.0,16399,324239930099637,5,35.0,-235.33846806011942,0.02,16,0.0,0.1,1575420030,,,,2,,1,-3.0,,,,,,C,8486823675806
Raw,1677089022000,1490887610075,18,0.0,-1361122749112462629,0.0,333.564095198152,-81.92418576311847,0.0,7,8,0.0,16399,324239925097529,201,12.0,272.0473141389018,0.5,16,0.0,0.1,1575420030,,,,0,,1,-3.0,,,,,,C,8486823675806
Raw,1677089022000,1490887610075,18,0.0,-1361122749112462629,0.0,333.564095198152,-81.92418576311847,0.0,7,9,0.0,16399,324239926185359,6,28.0,562.5819088577601,0.029999997711181815,16,0.0,0.1,1176450050,,,,2,,1,6.0,,,,,,Q,8486823675806
Raw,1677089022000,1490887610075,18,0.0,-1361122749112462629,0.0,333.564095198152,-81.92418576311847,0.0,7,8,0.0,16399,324239925097366,6,17.0,272.0045851973018,0.029999997711181815,16,0.0,0.1,1176450050,,,,0,,1,6.0,,,,,,Q,8486823675806
Raw,1677089022000,1490887610075,18,0.0,-1361122749112462629,0.0,333.564095198152,-81.92418576311847,0.0,7,7,0.0,16399,324239930133425,6,27.0,88.67278788486318,0.029999997711181815,16,0.0,0.1,1575420030,,,,2,,1,-3.0,,,,,,C,8486823675806
Raw,1677089022000,1490887610075,18,0.0,-1361122749112462629,0.0,333.564095198152,-81.92418576311847,0.0,7,3,0.0,23560,324239918797352,5,33.0,338.5702505439094,0.02,16,0.0,0.1,1575420030,,,,2,,6,-3.0,,,,,,A,8486823675806
Raw,1677089022000,1490887610075,18,0.0,-1361122749112462629,0.0,333.564095198152,-81.92418576311847,0.0,7,13,0.0,16399,324239920722421,161,17.0,-672.3686712509365,0.30000000715255754,16,0.0,0.1,1575420030,,,,0,,1,-3.0,,,,,,C,8486823675806
Raw,1677089022000,1490887610075,18,0.0,-1361122749112462629,0.0,333.564095198152,-81.92418576311847,0.0,7,27,0.0,16399,324239917856767,7,12.0,556.5377763647915,0.05,16,0.0,0.1,1575420030,,,,1,,1,-3.0,,,,,,C,8486823675806
Raw,1677089022000,1490887610075,18,0.0,-1361122749112462629,0.0,333.564095198152,-81.92418576311847,0.0,7,25,0.0,23560,324239916608186,7,23.0,345.6660307283188,0.05,16,0.0,0.1,1176450050,,,,2,,6,6.0,,,,,,Q,8486823675806
Raw,1677089022000,1490887610075,18,0.0,-1361122749112462629,0.0,333.564095198152,-81.92418576311847,0.0,7,10,0.0,32995,75821933915538,17,34.0,14.863040328545564,0.02,16,0.0,0.1,1597781250,,,,2,,3,-3.0,,,,,,C,8486823675806
Raw,1677089022000,1490887610075,18,0.0,-1361122749112462629,0.0,333.564095198152,-81.92418576311847,0.0,7,2,0.0,23560,324239922285089,11,23.0,-57.15654375550415,0.05,16,0.0,0.1,1575420030,,,,1,,6,-3.0,,,,,,A,8486823675806
Raw,1677089022000,1490887610075,18,0.0,-1361122749112462629,0.0,333.564095198152,-81.92418576311847,0.0,7,9,0.0,32995,75821929441910,19,38.0,420.86528627833417,0.01,16,0.0,0.1,1600593790,,,,1,,3,-3.0,,,,,,C,8486823675806
Raw,1677089022000,1490887610075,18,0.0,-1361122749112462629,0.0,333.564095198152,-81.92418576311847,0.0,7,3,0.0,23560,324239918797321,5,33.0,338.55304519969786,0.02,16,0.0,0.1,1176450050,,,,2,,6,6.0,,,,,,Q,8486823675806
Raw,1677089022000,1490887610075,18,0.0,-1361122749112462629,0.0,333.564095198152,-81.92418576311847,0.0,7,1,0.0,32995,75821924796094,44,22.0,-669.33538894815,0.05,16,0.0,0.1,1602281220,,,,1,,3,-3.0,,,,,,C,8486823675806
Raw,1677089022000,1490887610075,18,0.0,-1361122749112462629,0.0,333.564095198152,-81.92418576311847,0.0,7,30,0.0,16399,324239930099654,7,23.0,-234.425845522105,0.05,16,0.0,0.1,1176450050,,,,2,,1,6.0,,,,,,Q,8486823675806
Raw,1677089022000,1490887610075,18,0.0,-1361122749112462629,0.0,333.564095198152,-81.92418576311847,0.0,7,7,0.0,32995,75821930610313,28,24.0,641.2507834740815,0.05,16,0.0,0.1,1604531200,,,,2,,3,-3.0,,,,,,C,8486823675806
Raw,1677089022000,1490887610075,18,0.0,-1361122749112462629,0.0,333.564095198152,-81.92418576311847,0.0,7,8,0.0,23560,324239920746389,6,27.0,-170.03338518757732,0.029999997711181815,16,0.0,0.1,1176450050,,,,2,,6,6.0,,,,,,Q,8486823675806
Raw,1677089022000,1490887610075,18,0.0,-1361122749112462629,0.0,333.564095198152,-81.92418576311847,0.0,7,8,0.0,32995,75821934039282,25,33.0,-39.85618462936113,0.02,16,0.0,0.1,1605093760,,,,1,,3,-3.0,,,,,,C,8486823675806
Raw,1677089022000,1490887610075,18,0.0,-1361122749112462629,0.0,333.564095198152,-81.92418576311847,0.0,7,18,0.0,32995,75821920270625,101,19.0,273.5370828060464,0.30000000715255754,16,0.0,0.1,1600031230,,,,0,,3,-3.0,,,,,,C,8486823675806
Raw,1677089022000,1490887610075,18,0.0,-1361122749112462629,0.0,333.564095198152,-81.92418576311847,0.0,7,14,0.0,16399,324225924043614,34,20.0,80.1789781484158,0.05,16,0.0,0.1,1561097980,,,,1,,5,-3.0,,,,,,I,8486823675806
